~Version Information
 VERS.                  2.0:   CWLS log ASCII Standard -VERSION 2.0
 WRAP.                   NO:   One line per depth step
~Well Information Block
#MNEM.UNIT     VALUE/NAME     DESCRIPTION
#---------     -----------    ---------------------------
 STRT.M               850.9700: START DEPTH
 STOP.M              1829.0000: STOP DEPTH
 STEP.M                 0.0000: STEP DEPTH
 NULL.               -999.2500: NULL VALUE
 DFWT.                        :  DIST FWL TEXT
 DFST.                        :  DIST FSL TEXT
 DMF .             Drill Floor:  DRILL MEAS FROM
 STIM.      22.05.04 01-Nov-16:  START TIME
 DATE.      13.05.04 07-Nov-16:  END TIME
 SPUD.               01-Nov-16:  SPUD DATE
 NREF.                    Grid:  NORTH REFERENCE
 HPTY.       Minimum Curvature:  HOLE POS TYPE
 DMOD.             Drill Model:  DRILL MOD DESC
 SVYD.                  Survey:  SURVEY DESC
 ILTD.               Lithology:  INTERP LTH DESC
 FTOP.          Formation Tops:  FORM TOPS DESC
 WELL.          PL19-3-E08ST02:  WELL NAME
 COMP.           CNOOC-Tianjin:  COMPANY
 SON .        TI-XX-0903621539:  JOB NUMBER
 GCDE.     Generic Lat/Long's, Degrees, -180 ==> +180:  GEO COORD DESC
 CCDE.     China TM 120N - WGS84 (CM 120):  CART COORD DESC
 GGSY.                      LL:  GEO GRID SYS
 CGSY.            SS CHINA120N:  CART GRID SYS
 GREF.     Ellipsoid World Geodetic System :  GEO REFERENCE
 CREF.     Ellipsoid World Geodetic System :  CART REFERENCE
 MMDL.            bggm2016.dat:  MAGNETIC MODEL
 MMDD.       01 November, 2016:  MAG DATA DATE
 MDS .              Win MagUTM:  MAG DATA SOURCE
 LLGR.      Latitude/Longitude:  LLGROUP
 XYGR.     Asian Coordinate Systems:  XYGROUP
 PDAT.          Mean Sea Level:  PERMANENT DATUM
 WTYP.                Deviated:  WELL TYPE
 BASE.                 Tianjin:  LOGGING EQUIPMENT BASE LOCATION
 REGN.            Asia Pacific:  REGION
 PROV.               Shan Dong:  PROVINCE
 STAT.               Shan Dong:  STATE NAME
 CTRY.                   China:  COUNTRY NAME
 FLD .                Peng Lai:  FIELD NAME
 MWDS.                    TEDA:  MWD SHOP
 RIG .                   WHP-E:  RIG NAME
 CNTY.                Peng Lai:  COUNTY NAME
 UNIT.         CH-DNV-UNIT-005:  LOGGING EQUIPMENT ID
 API .                        :  API NUMBER
 SRVC.             Halliburton:  SERVICE COMPANY
 UWI .                        :  UNIQUE WELL IDENTIFIER
 LOC .                        :  LOCATION
 LMF .             Drill Floor:  LOG MEASURED FROM
 TVDS.ft            154.724411:  TVDSS CORRECTN
 LATI.deg            38.403482:  LATITUDE
 LONG.deg           120.102090:  LONGITUDE
 WHNS.ft              0.000000:  WELL HEAD N/S
 WHEW.ft              0.000000:  WELL HEAD E/W
 UTMX.m          508913.907000:  UTM X
 UTMY.m         4250588.680000:  UTM Y
 DFWL.ft              0.000000:  DISTANCE FWL
 DFSL.ft              0.000000:  DISTANCE FSL
 SDEP.ft           2621.391113:  START DEPTH
 TDD .ft           6000.656250:  TOTAL DEPTH (DRILLER)
 VSDR.deg           265.279999:  VERT SEC DIRECT
 GVFD.g               1.000000:  GRAVITY FIELD
 MFLD.nT          53163.011719:  MAGNETIC FIELD
 MDIP.deg            56.687996:  MAGNETIC DIP
 MDEC.deg            -7.495696:  MAGNETIC DECL
 GRDC.deg             0.063418:  GRID CORRECTION
 AZTC.deg            -7.559114:  AZM TOTAL CORR
 EPD .ft              0.000000:  ELEVATION
 EGL .ft            -93.175850:  GROUND ELEVATION
 WDMS.ft             93.175850:  WD ELEV
 APD .ft            154.724411:  DEPTH ABOVE PD
 MMDE.ft            -28.400000:  MAGUTM CALC DEP
 CMER.deg           120.000000:  CENTRL MERIDIAN
 AGAP.ft            154.724411:  AIR GAP
 EKB .ft            154.724411:  KB ELEVATION
 EDF .ft            154.724411:  DF ELEVATION
 TDL .ft           3336.614258:  TOTAL DEPTH (LOGGER)
 VSC .                       0:  VS TO CLOSURE
 MAGU.                 1825417:  MAGUTM CHECKSUM
~Parameter Information Block
#MNEM.UNIT       Value        Description
#---------     -----------    ---------------------------
 AV  .fpm           236.000000:  Ann Velocity 
 AVMX.fpm           253.000000:  Max Ann Veloc 
 AZIF.deg           227.479996:  Azm, Final 
 BHAT.               Mud Motor:  BHA Type 
 BREV.krev       724200.000000:  Rev Bit Total 
 BROT.°/100'        100.000000:  Build Rotating 
 BS  .in              8.500000:  Bit Size 
 BSZ .in              8.500000:  Bit Size 
 BTPL.psig          150.000000:  Bit Press Loss 
 CABU.                      No:  Customer Abuse 
 COMM.                     |Îp:  Run Comments 1 
 TCS .hr             69.164497:  Time Ciculation Ended 
 CV  .fpm           544.000000:  Crit Velocity 
 CVMX.fpm           548.000000:  Max Crit Veloc 
 DD1 .            Zhang Junjie:  Direct Drillr 1 
 DD2 .                Cai Ming:  Direct Drillr 2 
 DDSV.               Mud Motor:  DD Service 
 DEFF.%              95.000000:  % Det Eff 
 DLRX.°/100'          0.160000:  Dogleg Rot Max 
 DLSO.°/100'          0.180000:  Dogleg Oriented 
 DLSX.°/100'          0.330000:  Dogleg Str Max 
 DRET.      20.01.36 05-Nov-16:  Drill End Time 
 DRST.      16.01.36 03-Nov-16:  Drill Start Tim 
 DTIM.hr             31.092472:  Time Drilling 
 EDEP.ft           6000.656250:  End Depth 
 ENG1.             Sun Qingyao:  Engineer 1 
 ENG2.               Xin Zehai:  Engineer 2 
 ENG3.               Zhang Jie:  Engineer 3 
 ETIM.      09.46.30 07-Nov-16:  End Time 
 FLOI.gpm           570.000000:  Flow In 
 FLON.gpm           480.000031:  Flow In Min 
 FLOS.mptm            4.000000:  Fluid Loss 
 FLOX.gpm           580.000000:  Flow In Max 
 DFT .                 Polymer:  Mud Type 
 HFLO.                      No:  High Flow 
 HPRE.                      No:  High Pressure 
 HTEM.                      No:  High Temp 
 HYDO.ft              0.000000:  Hydro Offset 
 IFIN.deg            29.000000:  Inc, Final 
 IMAX.deg            47.153461:  Inc Max 
 IMIN.deg            29.000000:  Inc Min 
 IMND.ft           6000.656250:  Inc Min Depth 
 IMXD.ft           2791.896240:  Inc Max Depth 
 JARR.                      No:  Jarring 
 LETM.      20.01.36 05-Nov-16:  Log End Time 
 LOST.hr                     0:  Lost Rig Time 
 LSTM.      16.01.36 03-Nov-16:  Log Start Time 
 MDCL.ppm         93000.000000:  Mud Chlorides 
 MDES.             Fresh Water:  Mud Desc 
 DFD .ppg             9.900000:  Mud Density 
 MDMN.ppg             9.600000:  Dens Mud Min 
 MDMX.ppg            10.020000:  Dens Mud Max 
 PH  .pH             10.000000:  Mud pH 
 MOIL.                       0:  Run Mud Oil % 
 MOWR.                    0 89:  Run Mud OWR 
 MSND.                     0.2:  Run Mud Sand % 
 MSOL.                      11:  Run Mud Solids% 
 DFV .spqt           53.000000:  Mud Viscosity 
 MWOD.in              6.750000:  MWD Tool OD 
 MWSI.                      No:  Serv Intrp, MWD 
 OTIM.hr             95.282852:  Time Operating 
 PMAX.psig         2200.000000:  Press Op, Max 
 PV  .cP             21.000000:  Mud PV 
 RMS .ohmm            0.850000:  Mud Resistivity 
 RMCS.ohmm            0.870000:  Mud Cake Resistivity 
 MCST.degF           55.939991:  Mud Cake Sample Temperature 
 RMFS.ohmm            0.820000:  Mud Filtrate Resistivity 
 RMFT.degF           55.939991:  Mud Filtrate Sample Temperature 
 RMMT.ohmm            0.335700:  Rm @ Max Temp 
 MST .degF           55.939991:  Mud Sample Temperature 
 RUN .                     200:  Run Number 
 ROPA.fph           109.383202:  ROP Avg 
 ROPN.fph            52.493439:  ROP Min 
 ROPX.fph           196.850388:  ROP Max 
 RPMA.rpm            60.000000:  RPM Surface Avg 
 RPMN.rpm            40.000000:  RPM Surface Min 
 RPMX.rpm            80.000000:  RPM Surface Max 
 RRUN.                    0200:  Rig Run Number 
 RTIM.hr             35.000000:  Time Reaming 
 SAZI.deg           271.859985:  Azm, Start 
 SDEP.ft           2664.041992:  Start Depth 
 SIDD.                      No:  Serv Intrp, DD 
 SINC.deg            44.990002:  Inc, Start 
 SPPA.psig         1863.000000:  SPP Avg 
 SPPN.psig         1200.000000:  SPP Min 
 SPPX.psig         2200.000000:  SPP Max 
 STIM.      10.01.36 03-Nov-16:  Start Time 
 SVCS.                 DD, MWD:  Services 
 SVER.                8.410000:  Sperry Version 
 TDAT.ft           3336.614258:  Tot Depth Attmp 
 TDDF.                      No:  Trip for DD 
 TDLG.ft           3336.614258:  Tot Depth Loggd 
 TFF .                      No:  Trip for Fail 
 TQAA.f-p          7000.000000:  Torque Abs Avg 
 TQAN.f-p          4000.000000:  Torque Abs Min 
 TQAX.f-p         10000.000000:  Torque Abs Max 
 TRRT.°/100'        100.000000:  Turn Rotating 
 MRT .                    HCIM:  Maximum Recorded Temperature 
 TTMX.degF          151.999741:  Max Tool Temp 
 VS01.          TI 90487359 W6:  Virtual Str1 SN 
 VS02.     TI 90485108 H1RGV26:  Virtual Str2 SN 
 VS03.         TI 90487467 F16:  Virtual Str3 SN 
 WBMN.klb             4.000000:  WOB Min 
 WITN.             Shu Xuesong:  Customer Rep 2 
 WITN.          Chen Qingzheng:  Customer Rep 
 WOBA.klb             5.420000:  WOB Avg 
 WOBX.klb             8.000000:  WOB Max 
 YP  .lhf2            9.500000:  Yield Point 
~Curve Information Block
#MNEM.UNIT                 API CODE     Curve Description
#---------               -----------    ---------------------------
 DEPT.M                 00 000 000 000:  Depth
 INC .deg               00 000 000 000:  Inclination
 AZI .deg               00 000 000 000:  Azimuth
 GTOTAL.g               00 000 000 000:  Gravity Total
 BTM .nT                00 000 000 000:  Total Magnetic Field Meas
 SVTEMP.degF            00 000 000 000:  Survey Temperature
#Other Information
#
#WARRANTY: Halliburton will use its best efforts to furnish customers with 
#accurate information and interpretations that are part of, and incident to, the services 
#provided.  However, Halliburton cannot and does not warrant the accuracy 
#or correctness of such information and interpretations.  Under no circumstances should any 
#such information or interpretation be relied upon as the sole basis for any drilling, 
#completion, production, or financial decision or any procedure involving any risk to the 
#safety of any drilling venture, drilling rig or its crew or any other third party.  The 
#Customer has full responsibility for all drilling, completion and production operation.  
#Halliburton makes no representations or warranties, either expressed or 
#implied, including, but not limited to, the implied warranties of merchantability or fitness 
#for a particular purpose, with respect to the services rendered.  In no event will 
#Halliburton be liable for failure to obtain any particular results or for 
#any damages, including, but not limited to, indirect, special or consequential damages, 
#resulting from the use of any information or interpretation provided by Halliburton.
#
~A   DEPT      INC     AZI     GTOTAL      BTM      SVTEMP   
    850.9700 47.1535 271.8564    0.9997 40959.5664  104.0000
    879.6800 45.8043 274.0200    0.9999 39609.2344  104.0000
    908.5000 44.7652 274.3911    1.0000 39207.9961  107.6000
    937.5000 43.6068 274.3591    0.9999 38841.3164  111.2000
    966.2700 42.2635 274.0083    1.0002 38346.4063  118.4000
    995.2300 43.7174 275.6506    1.0002 38464.5352  118.4000
   1023.9200 45.0367 276.5938    1.0002 38750.1445  118.4000
   1052.6200 43.7501 276.2479    0.9993 38324.4492  122.0000
   1081.5400 42.1423 276.3766    0.9997 37622.7617  122.0000
   1110.3400 42.4500 274.0600 -999.2500  -999.2500 -999.2500
   1138.9700 41.3069 274.0999    0.9997 37962.3047  129.2000
   1167.8100 40.8764 270.1619    1.0003 38992.5234  125.6000
   1196.6900 40.4054 266.3120    1.0003 39941.2188  122.0000
   1225.3200 40.6763 262.8344    1.0001 41103.2422  125.6000
   1254.4000 40.5370 258.3204    0.9994 42368.1953  125.6000
   1283.4600 39.3554 254.7533    0.9991 42772.0000  129.2000
   1312.4500 38.3197 249.9465    0.9997 43534.5156  129.2000
   1341.4100 37.1985 245.6137    0.9996 44138.6406  132.8000
   1370.2400 36.6153 241.8724    1.0000 44662.5469  136.4000
   1399.1800 36.5697 240.4747    0.9994 44960.6055  136.4000
   1427.9800 36.1057 239.7397    1.0001 44884.7422  132.8000
   1456.8500 36.5035 240.0514    0.9999 45006.5938  132.8000
   1485.9500 35.4382 239.0290    0.9997 44695.2852  132.8000
   1514.8700 34.7027 235.6784    0.9999 45227.7227  136.4000
   1543.8000 35.4727 232.5645    1.0001 46138.8164  136.4000
   1572.5106 35.6617 228.3332    0.9999 47079.7578  140.0000
   1601.4300 34.6828 229.3336    0.9997 46398.0508  136.4000
   1630.3100 33.5690 228.1353    0.9995 46047.9375  140.0000
   1659.1800 32.9741 228.4441    0.9992 45633.3359  147.2000
   1688.0000 32.3836 227.9262    1.0002 45450.2500  147.2000
   1716.3700 31.6952 227.5474    1.0003 45175.7891  143.6000
   1745.2300 30.9637 227.7974    1.0001 44724.1172  143.6000
   1774.4000 30.2799 227.4883    1.0006 44347.9883  143.6000
   1803.0800 29.4829 227.7784    1.0000 43965.3047  143.6000
   1829.0000 29.0000 227.4800 -999.2500  -999.2500 -999.2500
